{
    "type": "FeatureCollection",
    "features": [
        {
            "type": "Feature",
            "geometry": {
                "type": "Point",
                "coordinates": [
                    139.733788499999,
                    35.6264331,
                    0
                ]
            },
            "properties": {
                "名称":"アイスランド共和国大使館",
                "郵便番号":"108-0074",
                "所在地":"東京都港区高輪四丁目18番26号",
                "電話番号":"03-3447-1944"
            }
        }
        ,
        {
            "type": "Feature",
            "geometry": {
                "type": "Point",
                "coordinates": [
                    139.742155599999,
                    35.6581733,
                    0
                ]
            },
            "properties": {
                "名称":"アフガニスタン・イスラム共和国大使館",
                "郵便番号":"106-0041",
                "所在地":"東京都港区麻布台二丁目2番1号",
                "電話番号":"03-5574-7611"
            }
        }
        ,
        {
            "type": "Feature",
            "geometry": {
                "type": "Point",
                "coordinates": [
                    139.7433496,
                    35.6687277,
                    0
                ]
            },
            "properties": {
                "名称":"アメリカ合衆国大使館",
                "郵便番号":"107-8420",
                "所在地":"東京都港区赤坂一丁目10番5号",
                "電話番号":"03-3224-5000"
            }
        }
        ,
        {
            "type": "Feature",
            "geometry": {
                "type": "Point",
                "coordinates": [
                    139.7302902,
                    35.6526709,
                    0
                ]
            },
            "properties": {
                "名称":"アルゼンチン共和国大使館",
                "郵便番号":"106-0046",
                "所在地":"東京都港区元麻布二丁目14番14号",
                "電話番号":"03-5420-7101/5"
            }
        }
        ,
        {
            "type": "Feature",
            "geometry": {
                "type": "Point",
                "coordinates": [
                    139.741666399999,
                    35.6687471,
                    0
                ]
            },
            "properties": {
                "名称":"アルメニア共和国大使館",
                "郵便番号":"107-0052",
                "所在地":"東京都港区赤坂一丁目11番36号 Residence Viscountess#230",
                "電話番号":"03-6277-7453"
            }
        }
        ,
        {
            "type": "Feature",
            "geometry": {
                "type": "Point",
                "coordinates": [
                    139.721816,
                    35.6592245,
                    0
                ]
            },
            "properties": {
                "名称":"イエメン共和国大使館",
                "郵便番号":"106-0031",
                "所在地":"東京都港区西麻布四丁目12番24号 第38興和ﾋﾞﾙﾃﾞｨﾝｸﾞ8階807号室",
                "電話番号":"03-3499-7151/2"
            }
        }
        ,
        {
            "type": "Feature",
            "geometry": {
                "type": "Point",
                "coordinates": [
                    139.742490099999,
                    35.6507323,
                    0
                ]
            },
            "properties": {
                "名称":"イタリア大使館",
                "郵便番号":"108-8302",
                "所在地":"東京都港区三田二丁目5番4号",
                "電話番号":"03-3453-5291/6"
            }
        }
        ,
        {
            "type": "Feature",
            "geometry": {
                "type": "Point",
                "coordinates": [
                    139.7312458,
                    35.6480215,
                    0
                ]
            },
            "properties": {
                "名称":"イラン・イスラム共和国大使館",
                "郵便番号":"106-0047",
                "所在地":"東京都港区南麻布三丁目13番9号",
                "電話番号":"03-3446-8011/5"
            }
        }
        ,
        {
            "type": "Feature",
            "geometry": {
                "type": "Point",
                "coordinates": [
                    139.7251627,
                    35.6571702,
                    0
                ]
            },
            "properties": {
                "名称":"ウクライナ大使館",
                "郵便番号":"106-0031",
                "所在地":"東京都港区西麻布三丁目5番31号",
                "電話番号":"03-5474-9770"
            }
        }
        ,
        {
            "type": "Feature",
            "geometry": {
                "type": "Point",
                "coordinates": [
                    139.736998299999,
                    35.6396365,
                    0
                ]
            },
            "properties": {
                "名称":"ウズベキスタン共和国大使館",
                "郵便番号":"108-0074",
                "所在地":"東京都港区高輪二丁目1番52号",
                "電話番号":"03-6277-2166/3442"
            }
        }
        ,
        {
            "type": "Feature",
            "geometry": {
                "type": "Point",
                "coordinates": [
                    139.721816,
                    35.6592245,
                    0
                ]
            },
            "properties": {
                "名称":"ウルグアイ東方共和国大使館",
                "郵便番号":"106-0031",
                "所在地":"東京都港区西麻布四丁目12番24号 第38興和ﾋﾞﾙﾃﾞｨﾝｸﾞ9階908号室",
                "電話番号":"03-3486-1888/1750"
            }
        }
        ,
        {
            "type": "Feature",
            "geometry": {
                "type": "Point",
                "coordinates": [
                    139.721816,
                    35.6592245,
                    0
                ]
            },
            "properties": {
                "名称":"エクアドル共和国大使館",
                "郵便番号":"106-0031",
                "所在地":"東京都港区西麻布四丁目12番24号 第38興和ﾋﾞﾙﾃﾞｨﾝｸﾞ8階806号室",
                "電話番号":"03-3499-2800/03-3498-3984"
            }
        }
        ,
        {
            "type": "Feature",
            "geometry": {
                "type": "Point",
                "coordinates": [
                    139.7315462,
                    35.6349036,
                    0
                ]
            },
            "properties": {
                "名称":"エチオピア連邦民主共和国大使館",
                "郵便番号":"108-0074",
                "所在地":"東京都港区高輪三丁目4番1号 高輪偕成ﾋﾞﾙ2階",
                "電話番号":"03-5420-6860/1"
            }
        }
        ,
        {
            "type": "Feature",
            "geometry": {
                "type": "Point",
                "coordinates": [
                    139.7260688,
                    35.6382058,
                    0
                ]
            },
            "properties": {
                "名称":"エリトリア国大使館",
                "郵便番号":"108-0071",
                "所在地":"東京都港区白金台四丁目7番4号 白金台STﾋﾞﾙ第401号室",
                "電話番号":"03-5791-1815"
            }
        }
        ,
        {
            "type": "Feature",
            "geometry": {
                "type": "Point",
                "coordinates": [
                    139.721816,
                    35.6592245,
                    0
                ]
            },
            "properties": {
                "名称":"エルサルバドル共和国大使館",
                "郵便番号":"106-0031",
                "所在地":"東京都港区西麻布四丁目12番24号 第38興和ﾋﾞﾙﾃﾞｨﾝｸﾞ8階803号室",
                "電話番号":"03-3499-4461"
            }
        }
        ,
        {
            "type": "Feature",
            "geometry": {
                "type": "Point",
                "coordinates": [
                    139.7392561,
                    35.6518768,
                    0
                ]
            },
            "properties": {
                "名称":"オーストラリア大使館",
                "郵便番号":"108-8361",
                "所在地":"東京都港区三田二丁目1番14号",
                "電話番号":"03-5232-4111"
            }
        }
        ,
        {
            "type": "Feature",
            "geometry": {
                "type": "Point",
                "coordinates": [
                    139.7328506,
                    35.6559233,
                    0
                ]
            },
            "properties": {
                "名称":"オーストリア共和国大使館",
                "郵便番号":"106-0046",
                "所在地":"東京都港区元麻布一丁目1番20号",
                "電話番号":"03-3451-8281/2"
            }
        }
        ,
        {
            "type": "Feature",
            "geometry": {
                "type": "Point",
                "coordinates": [
                    139.7457635,
                    35.6617308,
                    0
                ]
            },
            "properties": {
                "名称":"オランダ王国大使館",
                "郵便番号":"105-0011",
                "所在地":"東京都港区芝公園三丁目6番3号",
                "電話番号":"03-5776-5400"
            }
        }
        ,
        {
            "type": "Feature",
            "geometry": {
                "type": "Point",
                "coordinates": [
                    139.741532099999,
                    35.6601054,
                    0
                ]
            },
            "properties": {
                "名称":"カザフスタン共和国大使館",
                "郵便番号":"106-0041",
                "所在地":"東京都港区麻布台一丁目8番14号",
                "電話番号":"03-3589-1821/6（領事部）"
            }
        }
        ,
        {
            "type": "Feature",
            "geometry": {
                "type": "Point",
                "coordinates": [
                    139.727446,
                    35.6536651,
                    0
                ]
            },
            "properties": {
                "名称":"カタール国大使館",
                "郵便番号":"106-0046",
                "所在地":"東京都港区元麻布二丁目3番28号",
                "電話番号":"03-5475-0611～3"
            }
        }
        ,
        {
            "type": "Feature",
            "geometry": {
                "type": "Point",
                "coordinates": [
                    139.725401499999,
                    35.6616585,
                    0
                ]
            },
            "properties": {
                "名称":"ガーナ共和国大使館",
                "郵便番号":"106-0031",
                "所在地":"東京都港区西麻布一丁目5番21号",
                "電話番号":"03-5410-8631/3"
            }
        }
        ,
        {
            "type": "Feature",
            "geometry": {
                "type": "Point",
                "coordinates": [
                    139.7290507,
                    35.6728850999999,
                    0
                ]
            },
            "properties": {
                "名称":"カナダ大使館",
                "郵便番号":"107-8503",
                "所在地":"東京都港区赤坂七丁目3番38号",
                "電話番号":"03-5412-6200"
            }
        }
        ,
        {
            "type": "Feature",
            "geometry": {
                "type": "Point",
                "coordinates": [
                    139.7287814,
                    35.6711075,
                    0
                ]
            },
            "properties": {
                "名称":"カンボジア王国大使館",
                "郵便番号":"107-0052",
                "所在地":"東京都港区赤坂八丁目6番9号",
                "電話番号":"03-5412-8521"
            }
        }
        ,
        {
            "type": "Feature",
            "geometry": {
                "type": "Point",
                "coordinates": [
                    139.7439639,
                    35.6554404,
                    0
                ]
            },
            "properties": {
                "名称":"キューバ共和国大使館",
                "郵便番号":"106-0044",
                "所在地":"東京都港区東麻布一丁目28番4号",
                "電話番号":"03-5570-3182"
            }
        }
        ,
        {
            "type": "Feature",
            "geometry": {
                "type": "Point",
                "coordinates": [
                    139.7260126,
                    35.6583589,
                    0
                ]
            },
            "properties": {
                "名称":"ギリシャ大使館",
                "郵便番号":"106-0031",
                "所在地":"東京都港区西麻布三丁目16番30号",
                "電話番号":"03-3403-0871/2"
            }
        }
        ,
        {
            "type": "Feature",
            "geometry": {
                "type": "Point",
                "coordinates": [
                    139.7402048,
                    35.6534121,
                    0
                ]
            },
            "properties": {
                "名称":"キルギス共和国大使館",
                "郵便番号":"108-0073",
                "所在地":"東京都港区三田一丁目5番7号",
                "電話番号":"03-6453-8277"
            }
        }
        ,
        {
            "type": "Feature",
            "geometry": {
                "type": "Point",
                "coordinates": [
                    139.721816,
                    35.6592245,
                    0
                ]
            },
            "properties": {
                "名称":"グアテマラ共和国大使館",
                "郵便番号":"106-0031",
                "所在地":"東京都港区西麻布四丁目12番24号 第38興和ﾋﾞﾙﾃﾞｨﾝｸﾞ9階905号室",
                "電話番号":"03-3400-1830"
            }
        }
        ,
        {
            "type": "Feature",
            "geometry": {
                "type": "Point",
                "coordinates": [
                    139.741547699999,
                    35.6453832,
                    0
                ]
            },
            "properties": {
                "名称":"クウェート国大使館",
                "郵便番号":"108-0073",
                "所在地":"東京都港区三田四丁目13番12号",
                "電話番号":"03-3455-0361"
            }
        }
        ,
        {
            "type": "Feature",
            "geometry": {
                "type": "Point",
                "coordinates": [
                    139.721816,
                    35.6592245,
                    0
                ]
            },
            "properties": {
                "名称":"コスタリカ共和国大使館",
                "郵便番号":"106-0031",
                "所在地":"東京都港区西麻布四丁目12番24号 第38興和ﾋﾞﾙﾃﾞｨﾝｸﾞ9階901号室",
                "電話番号":"03-3486-1812"
            }
        }
        ,
        {
            "type": "Feature",
            "geometry": {
                "type": "Point",
                "coordinates": [
                    139.750801899999,
                    35.6644617,
                    0
                ]
            },
            "properties": {
                "名称":"コソボ共和国大使館",
                "郵便番号":"105-0003",
                "所在地":"東京都港区西新橋三丁目13番7号 VORT虎ノ門サウスビル10階",
                "電話番号":"03-6809-2577"
            }
        }
        ,
        {
            "type": "Feature",
            "geometry": {
                "type": "Point",
                "coordinates": [
                    139.728943,
                    35.649944,
                    0
                ]
            },
            "properties": {
                "名称":"コンゴ民主共和国大使館",
                "郵便番号":"106-0047",
                "所在地":"東京都港区南麻布三丁目6番3号",
                "電話番号":"03-6456-4394"
            }
        }
        ,
        {
            "type": "Feature",
            "geometry": {
                "type": "Point",
                "coordinates": [
                    139.7392807,
                    35.6633476,
                    0
                ]
            },
            "properties": {
                "名称":"サウジアラビア王国大使館",
                "郵便番号":"106-0032",
                "所在地":"東京都港区六本木一丁目8番4号",
                "電話番号":"03-3589-5241"
            }
        }
        ,
        {
            "type": "Feature",
            "geometry": {
                "type": "Point",
                "coordinates": [
                    139.7283125,
                    35.6568536,
                    0
                ]
            },
            "properties": {
                "名称":"サンマリノ共和国大使館",
                "郵便番号":"106-0046",
                "所在地":"東京都港区元麻布三丁目5番1号",
                "電話番号":"03-5414-7745"
            }
        }
        ,
        {
            "type": "Feature",
            "geometry": {
                "type": "Point",
                "coordinates": [
                    139.7306929,
                    35.6542929,
                    0
                ]
            },
            "properties": {
                "名称":"ジャマイカ大使館",
                "郵便番号":"106-0046",
                "所在地":"東京都港区元麻布二丁目13番1号",
                "電話番号":"03-3435-1861"
            }
        }
        ,
        {
            "type": "Feature",
            "geometry": {
                "type": "Point",
                "coordinates": [
                    139.741666399999,
                    35.6687471,
                    0
                ]
            },
            "properties": {
                "名称":"ジョージア大使館",
                "郵便番号":"107-0052",
                "所在地":"東京都港区赤坂一丁目11番36号 Residence Viscountess#220",
                "電話番号":"03-5575-6091"
            }
        }
        ,
        {
            "type": "Feature",
            "geometry": {
                "type": "Point",
                "coordinates": [
                    139.7337144,
                    35.6674275,
                    0
                ]
            },
            "properties": {
                "名称":"シリア・アラブ共和国大使館",
                "郵便番号":"107-0052",
                "所在地":"東京都港区赤坂六丁目19番45号 ﾎｰﾏｯﾄ･ｼﾞｪｲﾄﾞ",
                "電話番号":"03-3586-8977/8"
            }
        }
        ,
        {
            "type": "Feature",
            "geometry": {
                "type": "Point",
                "coordinates": [
                    139.7341877,
                    35.6575178999999,
                    0
                ]
            },
            "properties": {
                "名称":"シンガポール共和国大使館",
                "郵便番号":"106-0032",
                "所在地":"東京都港区六本木五丁目12番3号",
                "電話番号":"03-3586-9111/2"
            }
        }
        ,
        {
            "type": "Feature",
            "geometry": {
                "type": "Point",
                "coordinates": [
                    139.720080199999,
                    35.641401,
                    0
                ]
            },
            "properties": {
                "名称":"ジンバブエ共和国大使館",
                "郵便番号":"108-0071",
                "所在地":"東京都港区白金台五丁目9番10号",
                "電話番号":"03-3280-0331/2"
            }
        }
        ,
        {
            "type": "Feature",
            "geometry": {
                "type": "Point",
                "coordinates": [
                    139.7238112,
                    35.6533543,
                    0
                ]
            },
            "properties": {
                "名称":"スイス大使館",
                "郵便番号":"106-8589",
                "所在地":"東京都港区南麻布五丁目9番12号",
                "電話番号":"03-5449-8400"
            }
        }
        ,
        {
            "type": "Feature",
            "geometry": {
                "type": "Point",
                "coordinates": [
                    139.741838799999,
                    35.6647087,
                    0
                ]
            },
            "properties": {
                "名称":"スウェーデン王国大使館",
                "郵便番号":"106-0032",
                "所在地":"東京都港区六本木一丁目10番3号-100",
                "電話番号":"03-5562-5050"
            }
        }
        ,
        {
            "type": "Feature",
            "geometry": {
                "type": "Point",
                "coordinates": [
                    139.741502699999,
                    35.6656197,
                    0
                ]
            },
            "properties": {
                "名称":"スペイン王国大使館",
                "郵便番号":"106-0032",
                "所在地":"東京都港区六本木一丁目3番29号",
                "電話番号":"03-3583-8531/2"
            }
        }
        ,
        {
            "type": "Feature",
            "geometry": {
                "type": "Point",
                "coordinates": [
                    139.7368818,
                    35.6398547999999,
                    0
                ]
            },
            "properties": {
                "名称":"スリランカ民主社会主義共和国大使館",
                "郵便番号":"108-0074",
                "所在地":"東京都港区高輪二丁目1番54号",
                "電話番号":"03-3440-6911/2"
            }
        }
        ,
        {
            "type": "Feature",
            "geometry": {
                "type": "Point",
                "coordinates": [
                    139.730484599999,
                    35.6543956999999,
                    0
                ]
            },
            "properties": {
                "名称":"スロバキア共和国大使館",
                "郵便番号":"106-0046",
                "所在地":"東京都港区元麻布二丁目11番33号",
                "電話番号":"03-3451-2200/1033"
            }
        }
        ,
        {
            "type": "Feature",
            "geometry": {
                "type": "Point",
                "coordinates": [
                    139.7173269,
                    35.6567233,
                    0
                ]
            },
            "properties": {
                "名称":"スロベニア共和国大使館",
                "郵便番号":"107-0062",
                "所在地":"東京都港区南青山七丁目14番12号",
                "電話番号":"03-5468-6275"
            }
        }
        ,
        {
            "type": "Feature",
            "geometry": {
                "type": "Point",
                "coordinates": [
                    139.733066,
                    35.626481,
                    0
                ]
            },
            "properties": {
                "名称":"セルビア共和国大使館",
                "郵便番号":"108-0074",
                "所在地":"東京都港区高輪四丁目16番12号",
                "電話番号":"03-3447-3571/3572"
            }
        }
        ,
        {
            "type": "Feature",
            "geometry": {
                "type": "Point",
                "coordinates": [
                    139.7327622,
                    35.6519849,
                    0
                ]
            },
            "properties": {
                "名称":"大韓民国大使館",
                "郵便番号":"106-0047",
                "所在地":"東京都港区南麻布一丁目2番5号",
                "電話番号":"03-3452-7611～9"
            }
        }
        ,
        {
            "type": "Feature",
            "geometry": {
                "type": "Point",
                "coordinates": [
                    139.7272209,
                    35.6562898,
                    0
                ]
            },
            "properties": {
                "名称":"中華人民共和国大使館",
                "郵便番号":"106-0046",
                "所在地":"東京都港区元麻布三丁目4番33号",
                "電話番号":"03-3403-3388"
            }
        }
        ,
        {
            "type": "Feature",
            "geometry": {
                "type": "Point",
                "coordinates": [
                    139.745636,
                    35.6541906,
                    0
                ]
            },
            "properties": {
                "名称":"チリ共和国大使館",
                "郵便番号":"105-0014",
                "所在地":"東京都港区芝三丁目1番14号 芝公園阪神ビル8階",
                "電話番号":"03-3452-7561/2/7585"
            }
        }
        ,
        {
            "type": "Feature",
            "geometry": {
                "type": "Point",
                "coordinates": [
                    139.7252074,
                    35.6507821,
                    0
                ]
            },
            "properties": {
                "名称":"ドイツ連邦共和国大使館",
                "郵便番号":"106-0047",
                "所在地":"東京都港区南麻布四丁目5番10号",
                "電話番号":"03-5791-7700"
            }
        }
        ,
        {
            "type": "Feature",
            "geometry": {
                "type": "Point",
                "coordinates": [
                    139.721816,
                    35.6592245,
                    0
                ]
            },
            "properties": {
                "名称":"ドミニカ共和国大使館",
                "郵便番号":"106-0031",
                "所在地":"東京都港区西麻布四丁目12番24号 第38興和ﾋﾞﾙﾃﾞｨﾝｸﾞ9階904号室",
                "電話番号":"03-3499-6020"
            }
        }
        ,
        {
            "type": "Feature",
            "geometry": {
                "type": "Point",
                "coordinates": [
                    139.7426027,
                    35.6597231999999,
                    0
                ]
            },
            "properties": {
                "名称":"トンガ王国大使館",
                "郵便番号":"106-0041",
                "所在地":"東京都港区麻布台一丁目9番10号 飯倉ITﾋﾞﾙ2階",
                "電話番号":"03-6441-2481"
            }
        }
        ,
        {
            "type": "Feature",
            "geometry": {
                "type": "Point",
                "coordinates": [
                    139.7453606,
                    35.6666085,
                    0
                ]
            },
            "properties": {
                "名称":"ナイジェリア連邦共和国大使館",
                "郵便番号":"105-0001",
                "所在地":"東京都港区虎ノ門三丁目6番1号",
                "電話番号":"03-5425-8011"
            }
        }
        ,
        {
            "type": "Feature",
            "geometry": {
                "type": "Point",
                "coordinates": [
                    139.7402891,
                    35.6599509,
                    0
                ]
            },
            "properties": {
                "名称":"ナミビア共和国大使館",
                "郵便番号":"106-0041",
                "所在地":"東京都港区麻布台三丁目5番7号 AMEREXﾋﾞﾙ",
                "電話番号":"03-6426-5460"
            }
        }
        ,
        {
            "type": "Feature",
            "geometry": {
                "type": "Point",
                "coordinates": [
                    139.721816,
                    35.6592245,
                    0
                ]
            },
            "properties": {
                "名称":"ニカラグア共和国大使館",
                "郵便番号":"106-0031",
                "所在地":"東京都港区西麻布四丁目12番24号 第38興和ﾋﾞﾙﾃﾞｨﾝｸﾞ9階903号室",
                "電話番号":"03-3499-0400/4"
            }
        }
        ,
        {
            "type": "Feature",
            "geometry": {
                "type": "Point",
                "coordinates": [
                    139.723685199999,
                    35.6528873,
                    0
                ]
            },
            "properties": {
                "名称":"ノルウェー王国大使館",
                "郵便番号":"106-0047",
                "所在地":"東京都港区南麻布五丁目12番2号",
                "電話番号":"03-6408-8100"
            }
        }
        ,
        {
            "type": "Feature",
            "geometry": {
                "type": "Point",
                "coordinates": [
                    139.721816,
                    35.6592245,
                    0
                ]
            },
            "properties": {
                "名称":"ハイチ共和国大使館",
                "郵便番号":"106-0031",
                "所在地":"東京都港区西麻布四丁目12番24号 第38興和ﾋﾞﾙﾃﾞｨﾝｸﾞ9階906号室",
                "電話番号":"03-3486-7096"
            }
        }
        ,
        {
            "type": "Feature",
            "geometry": {
                "type": "Point",
                "coordinates": [
                    139.7278433,
                    35.6500156,
                    0
                ]
            },
            "properties": {
                "名称":"パキスタン・イスラム共和国大使館",
                "郵便番号":"106-0047",
                "所在地":"東京都港区南麻布四丁目6番17号",
                "電話番号":"03-5421-7741/2"
            }
        }
        ,
        {
            "type": "Feature",
            "geometry": {
                "type": "Point",
                "coordinates": [
                    139.7416779,
                    35.6563485,
                    0
                ]
            },
            "properties": {
                "名称":"パナマ共和国大使館",
                "郵便番号":"106-0044",
                "所在地":"東京都港区東麻布二丁目21番7号 Samon Bldg. 2階",
                "電話番号":"03-3505-3661/4/7"
            }
        }
        ,
        {
            "type": "Feature",
            "geometry": {
                "type": "Point",
                "coordinates": [
                    139.7413391,
                    35.6565624,
                    0
                ]
            },
            "properties": {
                "名称":"パラオ共和国大使館",
                "郵便番号":"106-0044",
                "所在地":"東京都港区東麻布二丁目21番11号",
                "電話番号":"03-5797-7480"
            }
        }
        ,
        {
            "type": "Feature",
            "geometry": {
                "type": "Point",
                "coordinates": [
                    139.741666399999,
                    35.6687471,
                    0
                ]
            },
            "properties": {
                "名称":"バーレーン王国大使館",
                "郵便番号":"107-0052",
                "所在地":"東京都港区赤坂一丁目11番36号 Residence Viscountess 710号",
                "電話番号":"03-3584-8001"
            }
        }
        ,
        {
            "type": "Feature",
            "geometry": {
                "type": "Point",
                "coordinates": [
                    139.7403255,
                    35.6485772,
                    0
                ]
            },
            "properties": {
                "名称":"ハンガリー大使館",
                "郵便番号":"108-0073",
                "所在地":"東京都港区三田二丁目17番14号",
                "電話番号":"03-5730-7120/1"
            }
        }
        ,
        {
            "type": "Feature",
            "geometry": {
                "type": "Point",
                "coordinates": [
                    139.742530499999,
                    35.6593204,
                    0
                ]
            },
            "properties": {
                "名称":"フィジー共和国大使館",
                "郵便番号":"106-0041",
                "所在地":"東京都港区麻布台二丁目3番5号 ﾉｱ･ﾋﾞﾙﾃﾞｨﾝｸﾞ14階",
                "電話番号":"03-3587-2038"
            }
        }
        ,
        {
            "type": "Feature",
            "geometry": {
                "type": "Point",
                "coordinates": [
                    139.735525599999,
                    35.6600674,
                    0
                ]
            },
            "properties": {
                "名称":"フィリピン共和国大使館",
                "郵便番号":"106-8537",
                "所在地":"東京都港区六本木五丁目15番5号",
                "電話番号":"03-5562-1600"
            }
        }
        ,
        {
            "type": "Feature",
            "geometry": {
                "type": "Point",
                "coordinates": [
                    139.7286876,
                    35.65021,
                    0
                ]
            },
            "properties": {
                "名称":"フィンランド大使館",
                "郵便番号":"106-8561",
                "所在地":"東京都港区南麻布三丁目5番39号",
                "電話番号":"03-5447-6000"
            }
        }
        ,
        {
            "type": "Feature",
            "geometry": {
                "type": "Point",
                "coordinates": [
                    139.7145132,
                    35.670846,
                    0
                ]
            },
            "properties": {
                "名称":"ブラジル連邦共和国大使館",
                "郵便番号":"107-8633",
                "所在地":"東京都港区北青山二丁目11番12号",
                "電話番号":"03-3404-5211"
            }
        }
        ,
        {
            "type": "Feature",
            "geometry": {
                "type": "Point",
                "coordinates": [
                    139.7260991,
                    35.6471686,
                    0
                ]
            },
            "properties": {
                "名称":"フランス大使館",
                "郵便番号":"106-8514",
                "所在地":"東京都港区南麻布四丁目11番44号",
                "電話番号":"03-5798-6000"
            }
        }
        ,
        {
            "type": "Feature",
            "geometry": {
                "type": "Point",
                "coordinates": [
                    139.721816,
                    35.6592245,
                    0
                ]
            },
            "properties": {
                "名称":"ベネズエラ・ボリバル共和国大使館",
                "郵便番号":"106-0031",
                "所在地":"東京都港区西麻布四丁目12番24号 第38興和ﾋﾞﾙﾃﾞｨﾝｸﾞ7階703号室",
                "電話番号":"03-3409-1501/4"
            }
        }
        ,
        {
            "type": "Feature",
            "geometry": {
                "type": "Point",
                "coordinates": [
                    139.7245268,
                    35.65354,
                    0
                ]
            },
            "properties": {
                "名称":"ボスニア・ヘルツェゴビナ大使館",
                "郵便番号":"106-0047",
                "所在地":"東京都港区南麻布五丁目3番29号 ｶﾞｰﾃﾞﾆｱﾋﾞﾙﾃﾞｨﾝｸﾞ2階、3階",
                "電話番号":"03-5422-8231"
            }
        }
        ,
        {
            "type": "Feature",
            "geometry": {
                "type": "Point",
                "coordinates": [
                    139.7509273,
                    35.6487414,
                    0
                ]
            },
            "properties": {
                "名称":"ボツワナ共和国大使館",
                "郵便番号":"108-0014",
                "所在地":"東京都港区芝四丁目5番10号 ユニゾ芝四丁目ビル6階",
                "電話番号":"03-5440-5676"
            }
        }
        ,
        {
            "type": "Feature",
            "geometry": {
                "type": "Point",
                "coordinates": [
                    139.721816,
                    35.6592245,
                    0
                ]
            },
            "properties": {
                "名称":"ボリビア多民族国大使館",
                "郵便番号":"106-0031",
                "所在地":"東京都港区西麻布四丁目12番24号 第38興和ﾋﾞﾙﾃﾞｨﾝｸﾞ8階804号室",
                "電話番号":"03-3499-5441/2"
            }
        }
        ,
        {
            "type": "Feature",
            "geometry": {
                "type": "Point",
                "coordinates": [
                    139.721816,
                    35.6592245,
                    0
                ]
            },
            "properties": {
                "名称":"ホンジュラス共和国大使館",
                "郵便番号":"106-0031",
                "所在地":"東京都港区西麻布四丁目12番24号 第38興和ﾋﾞﾙﾃﾞｨﾝｸﾞ8階802号室",
                "電話番号":"03-3409-1150"
            }
        }
        ,
        {
            "type": "Feature",
            "geometry": {
                "type": "Point",
                "coordinates": [
                    139.750801899999,
                    35.6644617,
                    0
                ]
            },
            "properties": {
                "名称":"マーシャル諸島共和国大使館",
                "郵便番号":"105-0003",
                "所在地":"東京都港区西新橋三丁目13番7号 VORT虎ノ門South 3階",
                "電話番号":"03-6432-0557"
            }
        }
        ,
        {
            "type": "Feature",
            "geometry": {
                "type": "Point",
                "coordinates": [
                    139.727781999999,
                    35.6536385,
                    0
                ]
            },
            "properties": {
                "名称":"マダガスカル共和国大使館",
                "郵便番号":"106-0046",
                "所在地":"東京都港区元麻布二丁目3番23号",
                "電話番号":"03-3446-7252/4"
            }
        }
        ,
        {
            "type": "Feature",
            "geometry": {
                "type": "Point",
                "coordinates": [
                    139.7315462,
                    35.6349036,
                    0
                ]
            },
            "properties": {
                "名称":"マラウイ共和国大使館",
                "郵便番号":"108-0074",
                "所在地":"東京都港区高輪三丁目4番1号 高輪偕成ﾋﾞﾙ7階",
                "電話番号":"03-3449-3010"
            }
        }
        ,
        {
            "type": "Feature",
            "geometry": {
                "type": "Point",
                "coordinates": [
                    139.7418748,
                    35.6671917,
                    0
                ]
            },
            "properties": {
                "名称":"ミクロネシア連邦大使館",
                "郵便番号":"107-0052",
                "所在地":"東京都港区赤坂一丁目14番2号 霊南坂ﾋﾞﾙﾃﾞｨﾝｸﾞ2階",
                "電話番号":"03-3585-5456"
            }
        }
        ,
        {
            "type": "Feature",
            "geometry": {
                "type": "Point",
                "coordinates": [
                    139.7426027,
                    35.6597231999999,
                    0
                ]
            },
            "properties": {
                "名称":"モルディブ共和国大使館",
                "郵便番号":"106-0041",
                "所在地":"東京都港区麻布台一丁目9番10号 飯倉ITﾋﾞﾙ8階",
                "電話番号":"03-6234-4315"
            }
        }
        ,
        {
            "type": "Feature",
            "geometry": {
                "type": "Point",
                "coordinates": [
                    139.714294099999,
                    35.6619886999999,
                    0
                ]
            },
            "properties": {
                "名称":"モロッコ王国大使館",
                "郵便番号":"107-0062",
                "所在地":"東京都港区南青山五丁目4番30号",
                "電話番号":"03-5485-7171"
            }
        }
        ,
        {
            "type": "Feature",
            "geometry": {
                "type": "Point",
                "coordinates": [
                    139.726844199999,
                    35.6581581,
                    0
                ]
            },
            "properties": {
                "名称":"ラオス人民民主共和国大使館",
                "郵便番号":"106-0031",
                "所在地":"東京都港区西麻布三丁目3番22号",
                "電話番号":"03-5411-2291/2"
            }
        }
        ,
        {
            "type": "Feature",
            "geometry": {
                "type": "Point",
                "coordinates": [
                    139.729729,
                    35.656276,
                    0
                ]
            },
            "properties": {
                "名称":"リトアニア共和国大使館",
                "郵便番号":"106-0046",
                "所在地":"東京都港区元麻布三丁目7番18号",
                "電話番号":"03-3408-5091"
            }
        }
        ,
        {
            "type": "Feature",
            "geometry": {
                "type": "Point",
                "coordinates": [
                    139.727404699999,
                    35.6406472,
                    0
                ]
            },
            "properties": {
                "名称":"リベリア共和国大使館",
                "郵便番号":"108-0072",
                "所在地":"東京都港区白金四丁目14番12号 Shirokane K.House",
                "電話番号":"03-3441-7720"
            }
        }
        ,
        {
            "type": "Feature",
            "geometry": {
                "type": "Point",
                "coordinates": [
                    139.7245295,
                    35.6579466,
                    0
                ]
            },
            "properties": {
                "名称":"ルーマニア大使館",
                "郵便番号":"106-0031",
                "所在地":"東京都港区西麻布三丁目16番19号",
                "電話番号":"03-3479-0311/3"
            }
        }
        ,
        {
            "type": "Feature",
            "geometry": {
                "type": "Point",
                "coordinates": [
                    139.7299785,
                    35.6721019,
                    0
                ]
            },
            "properties": {
                "名称":"レソト王国大使館",
                "郵便番号":"107-0052",
                "所在地":"東京都港区赤坂七丁目5番47号 U&M赤坂ﾋﾞﾙ3階",
                "電話番号":"03-3584-7455"
            }
        }
        ,
        {
            "type": "Feature",
            "geometry": {
                "type": "Point",
                "coordinates": [
                    139.741666399999,
                    35.6687471,
                    0
                ]
            },
            "properties": {
                "名称":"レバノン共和国大使館",
                "郵便番号":"107-0052",
                "所在地":"東京都港区赤坂一丁目11番36号 Residence Viscountess#410",
                "電話番号":"03-5114-9950"
            }
        }
        ,
        {
            "type": "Feature",
            "geometry": {
                "type": "Point",
                "coordinates": [
                    139.741336199999,
                    35.6594343,
                    0
                ]
            },
            "properties": {
                "名称":"ロシア連邦大使館",
                "郵便番号":"106-0041",
                "所在地":"東京都港区麻布台二丁目1番1号",
                "電話番号":"03-3583-4224/5982"
            }
        }
    ]
}
